[
  {
    "id": "1",
    "name": "تبریز",
    "province": "آذربایجان شرقی",
    "province_id": "1",
    "lat": 38.066667,
    "lon": 46.3
  },
  {
    "id": "2",
    "name": "کندوان",
    "province": "آذربایجان شرقی",
    "province_id": "1",
    "lat": null,
    "lon": null
  },
  {
    "id": "3",
    "name": "بندر شرفخانه",
    "province": "آذربایجان شرقی",
    "province_id": "1",
    "lat": null,
    "lon": null
  },
  {
    "id": "4",
    "name": "مراغه",
    "province": "آذربایجان شرقی",
    "province_id": "1",
    "lat": 37.389167,
    "lon": 46.2375
  },
  {
    "id": "5",
    "name": "میانه",
    "province": "آذربایجان شرقی",
    "province_id": "1",
    "lat": 37.421111,
    "lon": 47.715
  },
  {
    "id": "6",
    "name": "شبستر",
    "province": "آذربایجان شرقی",
    "province_id": "1",
    "lat": 38.180278,
    "lon": 45.702778
  },
  {
    "id": "7",
    "name": "مرند",
    "province": "آذربایجان شرقی",
    "province_id": "1",
    "lat": 38.425117,
    "lon": 45.769636
  },
  {
    "id": "8",
    "name": "جلفا",
    "province": "آذربایجان شرقی",
    "province_id": "1",
    "lat": 38.940278,
    "lon": 45.630833
  },
  {
    "id": "9",
    "name": "سراب",
    "province": "آذربایجان شرقی",
    "province_id": "1",
    "lat": 37.940833,
    "lon": 47.536667
  },
  {
    "id": "10",
    "name": "هادیشهر",
    "province": "آذربایجان شرقی",
    "province_id": "1",
    "lat": null,
    "lon": null
  },
  {
    "id": "11",
    "name": "بناب",
    "province": "آذربایجان شرقی",
    "province_id": "1",
    "lat": 37.340278,
    "lon": 46.056111
  },
  {
    "id": "12",
    "name": "کلیبر",
    "province": "آذربایجان شرقی",
    "province_id": "1",
    "lat": 38.869444,
    "lon": 47.035556
  },
  {
    "id": "13",
    "name": "تسوج",
    "province": "آذربایجان شرقی",
    "province_id": "1",
    "lat": null,
    "lon": null
  },
  {
    "id": "14",
    "name": "اهر",
    "province": "آذربایجان شرقی",
    "province_id": "1",
    "lat": 38.4894305,
    "lon": 47.0683575
  },
  {
    "id": "15",
    "name": "هریس",
    "province": "آذربایجان شرقی",
    "province_id": "1",
    "lat": 29.7751825,
    "lon": -95.3102505
  },
  {
    "id": "16",
    "name": "عجبشیر",
    "province": "آذربایجان شرقی",
    "province_id": "1",
    "lat": 37.4775,
    "lon": 45.894167
  },
  {
    "id": "17",
    "name": "هشترود",
    "province": "آذربایجان شرقی",
    "province_id": "1",
    "lat": 37.477778,
    "lon": 47.050833
  },
  {
    "id": "18",
    "name": "ملکان",
    "province": "آذربایجان شرقی",
    "province_id": "1",
    "lat": 37.145625,
    "lon": 46.1685242
  },
  {
    "id": "19",
    "name": "بستان آباد",
    "province": "آذربایجان شرقی",
    "province_id": "1",
    "lat": 37.85,
    "lon": 46.833333
  },
  {
    "id": "20",
    "name": "ورزقان",
    "province": "آذربایجان شرقی",
    "province_id": "1",
    "lat": 38.509722,
    "lon": 46.654444
  },
  {
    "id": "21",
    "name": "اسکو",
    "province": "آذربایجان شرقی",
    "province_id": "1",
    "lat": 37.915833,
    "lon": 46.123611
  },
  {
    "id": "22",
    "name": "آذر شهر",
    "province": "آذربایجان شرقی",
    "province_id": "1",
    "lat": 37.758889,
    "lon": 45.978333
  },
  {
    "id": "23",
    "name": "قره آغاج",
    "province": "آذربایجان شرقی",
    "province_id": "1",
    "lat": null,
    "lon": null
  },
  {
    "id": "24",
    "name": "ممقان",
    "province": "آذربایجان شرقی",
    "province_id": "1",
    "lat": null,
    "lon": null
  },
  {
    "id": "25",
    "name": "صوفیان",
    "province": "آذربایجان شرقی",
    "province_id": "1",
    "lat": null,
    "lon": null
  },
  {
    "id": "26",
    "name": "ایلخچی",
    "province": "آذربایجان شرقی",
    "province_id": "1",
    "lat": null,
    "lon": null
  },
  {
    "id": "27",
    "name": "خسروشهر",
    "province": "آذربایجان شرقی",
    "province_id": "1",
    "lat": null,
    "lon": null
  },
  {
    "id": "28",
    "name": "باسمنج",
    "province": "آذربایجان شرقی",
    "province_id": "1",
    "lat": null,
    "lon": null
  },
  {
    "id": "29",
    "name": "سهند",
    "province": "آذربایجان شرقی",
    "province_id": "1",
    "lat": null,
    "lon": null
  },
  {
    "id": "30",
    "name": "ارومیه",
    "province": "آذربایجان غربی",
    "province_id": "2",
    "lat": 37.555278,
    "lon": 45.0725
  },
  {
    "id": "31",
    "name": "نقده",
    "province": "آذربایجان غربی",
    "province_id": "2",
    "lat": 36.955278,
    "lon": 45.388056
  },
  {
    "id": "32",
    "name": "ماکو",
    "province": "آذربایجان غربی",
    "province_id": "2",
    "lat": 39.295278,
    "lon": 44.516667
  },
  {
    "id": "33",
    "name": "تکاب",
    "province": "آذربایجان غربی",
    "province_id": "2",
    "lat": 36.400833,
    "lon": 47.113333
  },
  {
    "id": "34",
    "name": "خوی",
    "province": "آذربایجان غربی",
    "province_id": "2",
    "lat": 38.550278,
    "lon": 44.952222
  },
  {
    "id": "35",
    "name": "مهاباد",
    "province": "آذربایجان غربی",
    "province_id": "2",
    "lat": 36.763056,
    "lon": 45.722222
  },
  {
    "id": "36",
    "name": "سر دشت",
    "province": "آذربایجان غربی",
    "province_id": "2",
    "lat": 36.155278,
    "lon": 45.478889
  },
  {
    "id": "37",
    "name": "چالدران",
    "province": "آذربایجان غربی",
    "province_id": "2",
    "lat": 39.0649837,
    "lon": 44.3844679
  },
  {
    "id": "38",
    "name": "بوکان",
    "province": "آذربایجان غربی",
    "province_id": "2",
    "lat": 36.521111,
    "lon": 46.208889
  },
  {
    "id": "39",
    "name": "میاندوآب",
    "province": "آذربایجان غربی",
    "province_id": "2",
    "lat": 36.969444,
    "lon": 46.102778
  },
  {
    "id": "40",
    "name": "سلماس",
    "province": "آذربایجان غربی",
    "province_id": "2",
    "lat": 38.197222,
    "lon": 44.765278
  },
  {
    "id": "41",
    "name": "شاهین دژ",
    "province": "آذربایجان غربی",
    "province_id": "2",
    "lat": 36.679167,
    "lon": 46.566944
  },
  {
    "id": "42",
    "name": "پیرانشهر",
    "province": "آذربایجان غربی",
    "province_id": "2",
    "lat": 36.694444,
    "lon": 45.141667
  },
  {
    "id": "43",
    "name": "سیه چشمه",
    "province": "آذربایجان غربی",
    "province_id": "2",
    "lat": null,
    "lon": null
  },
  {
    "id": "44",
    "name": "اشنویه",
    "province": "آذربایجان غربی",
    "province_id": "2",
    "lat": 37.039722,
    "lon": 45.098333
  },
  {
    "id": "45",
    "name": "چایپاره",
    "province": "آذربایجان غربی",
    "province_id": "2",
    "lat": null,
    "lon": null
  },
  {
    "id": "46",
    "name": "پلدشت",
    "province": "آذربایجان غربی",
    "province_id": "2",
    "lat": null,
    "lon": null
  },
  {
    "id": "47",
    "name": "شوط",
    "province": "آذربایجان غربی",
    "province_id": "2",
    "lat": null,
    "lon": null
  },
  {
    "id": "48",
    "name": "اردبیل",
    "province": "اردبیل",
    "province_id": "3",
    "lat": 38.4853276,
    "lon": 47.8911209
  },
  {
    "id": "49",
    "name": "سرعین",
    "province": "اردبیل",
    "province_id": "3",
    "lat": null,
    "lon": null
  },
  {
    "id": "50",
    "name": "بیله سوار",
    "province": "اردبیل",
    "province_id": "3",
    "lat": 39.3567775,
    "lon": 47.9490765
  },
  {
    "id": "51",
    "name": "پارس آباد",
    "province": "اردبیل",
    "province_id": "3",
    "lat": 39.648333,
    "lon": 47.9175
  },
  {
    "id": "52",
    "name": "خلخال",
    "province": "اردبیل",
    "province_id": "3",
    "lat": 37.618889,
    "lon": 48.525833
  },
  {
    "id": "53",
    "name": "مشگین شهر",
    "province": "اردبیل",
    "province_id": "3",
    "lat": null,
    "lon": null
  },
  {
    "id": "54",
    "name": "مغان",
    "province": "اردبیل",
    "province_id": "3",
    "lat": null,
    "lon": null
  },
  {
    "id": "55",
    "name": "نمین",
    "province": "اردبیل",
    "province_id": "3",
    "lat": 38.426944,
    "lon": 48.483889
  },
  {
    "id": "56",
    "name": "نیر",
    "province": "اردبیل",
    "province_id": "3",
    "lat": 38.034722,
    "lon": 47.998611
  },
  {
    "id": "57",
    "name": "کوثر",
    "province": "اردبیل",
    "province_id": "3",
    "lat": 31.8676866,
    "lon": 54.3379802
  },
  {
    "id": "58",
    "name": "کیوی",
    "province": "اردبیل",
    "province_id": "3",
    "lat": null,
    "lon": null
  },
  {
    "id": "59",
    "name": "گرمی",
    "province": "اردبیل",
    "province_id": "3",
    "lat": 39.0372267,
    "lon": 47.9277021
  },
  {
    "id": "60",
    "name": "اصفهان",
    "province": "اصفهان",
    "province_id": "4",
    "lat": 32.6546275,
    "lon": 51.6679826
  },
  {
    "id": "61",
    "name": "فریدن",
    "province": "اصفهان",
    "province_id": "4",
    "lat": 33.0214829,
    "lon": 50.3069088
  },
  {
    "id": "62",
    "name": "فریدون شهر",
    "province": "اصفهان",
    "province_id": "4",
    "lat": 32.941111,
    "lon": 50.121111
  },
  {
    "id": "63",
    "name": "فلاورجان",
    "province": "اصفهان",
    "province_id": "4",
    "lat": 32.555278,
    "lon": 51.509722
  },
  {
    "id": "64",
    "name": "گلپایگان",
    "province": "اصفهان",
    "province_id": "4",
    "lat": 33.453611,
    "lon": 50.288333
  },
  {
    "id": "65",
    "name": "دهاقان",
    "province": "اصفهان",
    "province_id": "4",
    "lat": 31.94,
    "lon": 51.647778
  },
  {
    "id": "66",
    "name": "نطنز",
    "province": "اصفهان",
    "province_id": "4",
    "lat": 33.513333,
    "lon": 51.916389
  },
  {
    "id": "67",
    "name": "نایین",
    "province": "اصفهان",
    "province_id": "4",
    "lat": null,
    "lon": null
  },
  {
    "id": "68",
    "name": "تیران",
    "province": "اصفهان",
    "province_id": "4",
    "lat": null,
    "lon": null
  },
  {
    "id": "69",
    "name": "کاشان",
    "province": "اصفهان",
    "province_id": "4",
    "lat": 33.9850358,
    "lon": 51.4099625
  },
  {
    "id": "70",
    "name": "فولاد شهر",
    "province": "اصفهان",
    "province_id": "4",
    "lat": null,
    "lon": null
  },
  {
    "id": "71",
    "name": "اردستان",
    "province": "اصفهان",
    "province_id": "4",
    "lat": 33.376111,
    "lon": 52.369444
  },
  {
    "id": "72",
    "name": "سمیرم",
    "province": "اصفهان",
    "province_id": "4",
    "lat": 31.3988346,
    "lon": 51.567593
  },
  {
    "id": "73",
    "name": "درچه",
    "province": "اصفهان",
    "province_id": "4",
    "lat": null,
    "lon": null
  },
  {
    "id": "74",
    "name": "کوهپایه",
    "province": "اصفهان",
    "province_id": "4",
    "lat": null,
    "lon": null
  },
  {
    "id": "75",
    "name": "مبارکه",
    "province": "اصفهان",
    "province_id": "4",
    "lat": 32.346389,
    "lon": 51.504444
  },
  {
    "id": "76",
    "name": "شهرضا",
    "province": "اصفهان",
    "province_id": "4",
    "lat": null,
    "lon": null
  },
  {
    "id": "77",
    "name": "خمینی شهر",
    "province": "اصفهان",
    "province_id": "4",
    "lat": 32.700278,
    "lon": 51.521111
  },
  {
    "id": "78",
    "name": "شاهین شهر",
    "province": "اصفهان",
    "province_id": "4",
    "lat": null,
    "lon": null
  },
  {
    "id": "79",
    "name": "نجف آباد",
    "province": "اصفهان",
    "province_id": "4",
    "lat": 32.6324231,
    "lon": 51.3679914
  },
  {
    "id": "80",
    "name": "دولت آباد",
    "province": "اصفهان",
    "province_id": "4",
    "lat": null,
    "lon": null
  },
  {
    "id": "81",
    "name": "زرین شهر",
    "province": "اصفهان",
    "province_id": "4",
    "lat": null,
    "lon": null
  },
  {
    "id": "82",
    "name": "آران و بیدگل",
    "province": "اصفهان",
    "province_id": "4",
    "lat": 34.057778,
    "lon": 51.484167
  },
  {
    "id": "83",
    "name": "باغ بهادران",
    "province": "اصفهان",
    "province_id": "4",
    "lat": null,
    "lon": null
  },
  {
    "id": "84",
    "name": "خوانسار",
    "province": "اصفهان",
    "province_id": "4",
    "lat": 33.220556,
    "lon": 50.315
  },
  {
    "id": "85",
    "name": "مهردشت",
    "province": "اصفهان",
    "province_id": "4",
    "lat": null,
    "lon": null
  },
  {
    "id": "86",
    "name": "علویجه",
    "province": "اصفهان",
    "province_id": "4",
    "lat": null,
    "lon": null
  },
  {
    "id": "87",
    "name": "عسگران",
    "province": "اصفهان",
    "province_id": "4",
    "lat": null,
    "lon": null
  },
  {
    "id": "88",
    "name": "نهضت آباد",
    "province": "اصفهان",
    "province_id": "4",
    "lat": null,
    "lon": null
  },
  {
    "id": "89",
    "name": "حاجی آباد",
    "province": "اصفهان",
    "province_id": "4",
    "lat": 28.309167,
    "lon": 55.901667
  },
  {
    "id": "90",
    "name": "تودشک",
    "province": "اصفهان",
    "province_id": "4",
    "lat": null,
    "lon": null
  },
  {
    "id": "91",
    "name": "ورزنه",
    "province": "اصفهان",
    "province_id": "4",
    "lat": null,
    "lon": null
  },
  {
    "id": "449",
    "name": "چادگان",
    "province": "اصفهان",
    "province_id": "4",
    "lat": 32.768333,
    "lon": 50.628611
  },
  {
    "id": "275",
    "name": "طالقان",
    "province": "البرز",
    "province_id": "5",
    "lat": 33.2729171,
    "lon": 52.1985314
  },
  {
    "id": "276",
    "name": "نظرآباد",
    "province": "البرز",
    "province_id": "5",
    "lat": 35.952222,
    "lon": 50.6075
  },
  {
    "id": "277",
    "name": "اشتهارد",
    "province": "البرز",
    "province_id": "5",
    "lat": null,
    "lon": null
  },
  {
    "id": "278",
    "name": "هشتگرد",
    "province": "البرز",
    "province_id": "5",
    "lat": null,
    "lon": null
  },
  {
    "id": "279",
    "name": "کن",
    "province": "البرز",
    "province_id": "5",
    "lat": null,
    "lon": null
  },
  {
    "id": "280",
    "name": "آسارا",
    "province": "البرز",
    "province_id": "5",
    "lat": null,
    "lon": null
  },
  {
    "id": "281",
    "name": "شهرک گلستان",
    "province": "البرز",
    "province_id": "5",
    "lat": null,
    "lon": null
  },
  {
    "id": "282",
    "name": "اندیشه",
    "province": "البرز",
    "province_id": "5",
    "lat": null,
    "lon": null
  },
  {
    "id": "283",
    "name": "کرج",
    "province": "البرز",
    "province_id": "5",
    "lat": 35.8400188,
    "lon": 50.9390906
  },
  {
    "id": "285",
    "name": "گوهردشت",
    "province": "البرز",
    "province_id": "5",
    "lat": null,
    "lon": null
  },
  {
    "id": "286",
    "name": "ماهدشت",
    "province": "البرز",
    "province_id": "5",
    "lat": null,
    "lon": null
  },
  {
    "id": "287",
    "name": "مشکین دشت",
    "province": "البرز",
    "province_id": "5",
    "lat": null,
    "lon": null
  },
  {
    "id": "92",
    "name": "ایلام",
    "province": "ایلام",
    "province_id": "6",
    "lat": 33.2957618,
    "lon": 46.670534
  },
  {
    "id": "93",
    "name": "مهران",
    "province": "ایلام",
    "province_id": "6",
    "lat": 33.122222,
    "lon": 46.164722
  },
  {
    "id": "94",
    "name": "دهلران",
    "province": "ایلام",
    "province_id": "6",
    "lat": 32.694167,
    "lon": 47.267778
  },
  {
    "id": "95",
    "name": "آبدانان",
    "province": "ایلام",
    "province_id": "6",
    "lat": 32.9925,
    "lon": 47.419722
  },
  {
    "id": "96",
    "name": "شیروان چرداول",
    "province": "ایلام",
    "province_id": "6",
    "lat": null,
    "lon": null
  },
  {
    "id": "97",
    "name": "دره شهر",
    "province": "ایلام",
    "province_id": "6",
    "lat": 33.139722,
    "lon": 47.376111
  },
  {
    "id": "98",
    "name": "ایوان",
    "province": "ایلام",
    "province_id": "6",
    "lat": 33.827222,
    "lon": 46.309722
  },
  {
    "id": "99",
    "name": "سرابله",
    "province": "ایلام",
    "province_id": "6",
    "lat": null,
    "lon": null
  },
  {
    "id": "100",
    "name": "بوشهر",
    "province": "بوشهر",
    "province_id": "7",
    "lat": 28.9233837,
    "lon": 50.820314
  },
  {
    "id": "101",
    "name": "تنگستان",
    "province": "بوشهر",
    "province_id": "7",
    "lat": 28.9837547,
    "lon": 50.8330708
  },
  {
    "id": "102",
    "name": "دشتستان",
    "province": "بوشهر",
    "province_id": "7",
    "lat": 29.266667,
    "lon": 51.216667
  },
  {
    "id": "103",
    "name": "دیر",
    "province": "بوشهر",
    "province_id": "7",
    "lat": 27.84,
    "lon": 51.937778
  },
  {
    "id": "104",
    "name": "دیلم",
    "province": "بوشهر",
    "province_id": "7",
    "lat": 30.1182632,
    "lon": 50.2261227
  },
  {
    "id": "105",
    "name": "کنگان",
    "province": "بوشهر",
    "province_id": "7",
    "lat": 27.8370437,
    "lon": 52.0645473
  },
  {
    "id": "106",
    "name": "گناوه",
    "province": "بوشهر",
    "province_id": "7",
    "lat": 29.579167,
    "lon": 50.516944
  },
  {
    "id": "107",
    "name": "ریشهر",
    "province": "بوشهر",
    "province_id": "7",
    "lat": null,
    "lon": null
  },
  {
    "id": "108",
    "name": "دشتی",
    "province": "بوشهر",
    "province_id": "7",
    "lat": 35.7845145,
    "lon": 51.4347961
  },
  {
    "id": "109",
    "name": "خورموج",
    "province": "بوشهر",
    "province_id": "7",
    "lat": null,
    "lon": null
  },
  {
    "id": "110",
    "name": "اهرم",
    "province": "بوشهر",
    "province_id": "7",
    "lat": null,
    "lon": null
  },
  {
    "id": "111",
    "name": "برازجان",
    "province": "بوشهر",
    "province_id": "7",
    "lat": null,
    "lon": null
  },
  {
    "id": "112",
    "name": "خارک",
    "province": "بوشهر",
    "province_id": "7",
    "lat": null,
    "lon": null
  },
  {
    "id": "113",
    "name": "جم",
    "province": "بوشهر",
    "province_id": "7",
    "lat": 27.827778,
    "lon": 52.326944
  },
  {
    "id": "114",
    "name": "کاکی",
    "province": "بوشهر",
    "province_id": "7",
    "lat": null,
    "lon": null
  },
  {
    "id": "115",
    "name": "عسلویه",
    "province": "بوشهر",
    "province_id": "7",
    "lat": null,
    "lon": null
  },
  {
    "id": "116",
    "name": "بردخون",
    "province": "بوشهر",
    "province_id": "7",
    "lat": null,
    "lon": null
  },
  {
    "id": "117",
    "name": "تهران",
    "province": "تهران",
    "province_id": "8",
    "lat": 35.696111,
    "lon": 51.423056
  },
  {
    "id": "118",
    "name": "ورامین",
    "province": "تهران",
    "province_id": "8",
    "lat": 35.3252407,
    "lon": 51.6471987
  },
  {
    "id": "119",
    "name": "فیروزکوه",
    "province": "تهران",
    "province_id": "8",
    "lat": 35.438671,
    "lon": 60.809387
  },
  {
    "id": "120",
    "name": "ری",
    "province": "تهران",
    "province_id": "8",
    "lat": 48.3444663,
    "lon": -103.1651845
  },
  {
    "id": "121",
    "name": "دماوند",
    "province": "تهران",
    "province_id": "8",
    "lat": 35.9467494,
    "lon": 52.1275481
  },
  {
    "id": "122",
    "name": "اسلامشهر",
    "province": "تهران",
    "province_id": "8",
    "lat": 35.5445805,
    "lon": 51.2302457
  },
  {
    "id": "123",
    "name": "رودهن",
    "province": "تهران",
    "province_id": "8",
    "lat": null,
    "lon": null
  },
  {
    "id": "124",
    "name": "لواسان",
    "province": "تهران",
    "province_id": "8",
    "lat": null,
    "lon": null
  },
  {
    "id": "125",
    "name": "بومهن",
    "province": "تهران",
    "province_id": "8",
    "lat": null,
    "lon": null
  },
  {
    "id": "126",
    "name": "تجریش",
    "province": "تهران",
    "province_id": "8",
    "lat": null,
    "lon": null
  },
  {
    "id": "127",
    "name": "فشم",
    "province": "تهران",
    "province_id": "8",
    "lat": null,
    "lon": null
  },
  {
    "id": "128",
    "name": "کهریزک",
    "province": "تهران",
    "province_id": "8",
    "lat": null,
    "lon": null
  },
  {
    "id": "129",
    "name": "پاکدشت",
    "province": "تهران",
    "province_id": "8",
    "lat": 35.4668913,
    "lon": 51.6860625
  },
  {
    "id": "130",
    "name": "چهاردانگه",
    "province": "تهران",
    "province_id": "8",
    "lat": null,
    "lon": null
  },
  {
    "id": "131",
    "name": "شریف آباد",
    "province": "تهران",
    "province_id": "8",
    "lat": null,
    "lon": null
  },
  {
    "id": "132",
    "name": "قرچک",
    "province": "تهران",
    "province_id": "8",
    "lat": null,
    "lon": null
  },
  {
    "id": "133",
    "name": "باقرشهر",
    "province": "تهران",
    "province_id": "8",
    "lat": null,
    "lon": null
  },
  {
    "id": "134",
    "name": "شهریار",
    "province": "تهران",
    "province_id": "8",
    "lat": 35.659722,
    "lon": 51.059167
  },
  {
    "id": "135",
    "name": "رباط کریم",
    "province": "تهران",
    "province_id": "8",
    "lat": 35.484722,
    "lon": 51.082778
  },
  {
    "id": "136",
    "name": "قدس",
    "province": "تهران",
    "province_id": "8",
    "lat": null,
    "lon": null
  },
  {
    "id": "137",
    "name": "ملارد",
    "province": "تهران",
    "province_id": "8",
    "lat": null,
    "lon": null
  },
  {
    "id": "138",
    "name": "شهرکرد",
    "province": "چهارمحال بختیاری",
    "province_id": "9",
    "lat": 32.325556,
    "lon": 50.864444
  },
  {
    "id": "139",
    "name": "فارسان",
    "province": "چهارمحال بختیاری",
    "province_id": "9",
    "lat": 32.2582066,
    "lon": 50.5705088
  },
  {
    "id": "140",
    "name": "بروجن",
    "province": "چهارمحال بختیاری",
    "province_id": "9",
    "lat": 31.965278,
    "lon": 51.287222
  },
  {
    "id": "141",
    "name": "چلگرد",
    "province": "چهارمحال بختیاری",
    "province_id": "9",
    "lat": null,
    "lon": null
  },
  {
    "id": "142",
    "name": "اردل",
    "province": "چهارمحال بختیاری",
    "province_id": "9",
    "lat": 31.999722,
    "lon": 50.661667
  },
  {
    "id": "143",
    "name": "لردگان",
    "province": "چهارمحال بختیاری",
    "province_id": "9",
    "lat": 31.510278,
    "lon": 50.829444
  },
  {
    "id": "144",
    "name": "سامان",
    "province": "چهارمحال بختیاری",
    "province_id": "9",
    "lat": null,
    "lon": null
  },
  {
    "id": "443",
    "name": "کیار",
    "province": "چهارمحال بختیاری",
    "province_id": "9",
    "lat": null,
    "lon": null
  },
  {
    "id": "145",
    "name": "قائن",
    "province": "خراسان جنوبی",
    "province_id": "10",
    "lat": 33.726667,
    "lon": 59.184444
  },
  {
    "id": "146",
    "name": "فردوس",
    "province": "خراسان جنوبی",
    "province_id": "10",
    "lat": 34.018611,
    "lon": 58.172222
  },
  {
    "id": "147",
    "name": "بیرجند",
    "province": "خراسان جنوبی",
    "province_id": "10",
    "lat": 32.8649039,
    "lon": 59.2262472
  },
  {
    "id": "148",
    "name": "نهبندان",
    "province": "خراسان جنوبی",
    "province_id": "10",
    "lat": 31.541944,
    "lon": 60.036389
  },
  {
    "id": "149",
    "name": "سربیشه",
    "province": "خراسان جنوبی",
    "province_id": "10",
    "lat": 32.575556,
    "lon": 59.798333
  },
  {
    "id": "150",
    "name": "طبس مسینا",
    "province": "خراسان جنوبی",
    "province_id": "10",
    "lat": null,
    "lon": null
  },
  {
    "id": "151",
    "name": "قهستان",
    "province": "خراسان جنوبی",
    "province_id": "10",
    "lat": null,
    "lon": null
  },
  {
    "id": "152",
    "name": "درمیان",
    "province": "خراسان جنوبی",
    "province_id": "10",
    "lat": 33.0339405,
    "lon": 60.1184797
  },
  {
    "id": "153",
    "name": "مشهد",
    "province": "خراسان رضوی",
    "province_id": "11",
    "lat": 36.2604623,
    "lon": 59.6167549
  },
  {
    "id": "154",
    "name": "نیشابور",
    "province": "خراسان رضوی",
    "province_id": "11",
    "lat": 36.2140865,
    "lon": 58.7960915
  },
  {
    "id": "155",
    "name": "سبزوار",
    "province": "خراسان رضوی",
    "province_id": "11",
    "lat": 36.2151823,
    "lon": 57.6678228
  },
  {
    "id": "156",
    "name": "کاشمر",
    "province": "خراسان رضوی",
    "province_id": "11",
    "lat": 35.238333,
    "lon": 58.465556
  },
  {
    "id": "157",
    "name": "گناباد",
    "province": "خراسان رضوی",
    "province_id": "11",
    "lat": 34.352778,
    "lon": 58.683611
  },
  {
    "id": "158",
    "name": "طبس",
    "province": "خراسان رضوی",
    "province_id": "11",
    "lat": 33.595833,
    "lon": 56.924444
  },
  {
    "id": "159",
    "name": "تربت حیدریه",
    "province": "خراسان رضوی",
    "province_id": "11",
    "lat": 35.273889,
    "lon": 59.219444
  },
  {
    "id": "160",
    "name": "خواف",
    "province": "خراسان رضوی",
    "province_id": "11",
    "lat": 34.576389,
    "lon": 60.140833
  },
  {
    "id": "161",
    "name": "تربت جام",
    "province": "خراسان رضوی",
    "province_id": "11",
    "lat": 35.243889,
    "lon": 60.6225
  },
  {
    "id": "162",
    "name": "تایباد",
    "province": "خراسان رضوی",
    "province_id": "11",
    "lat": 34.74,
    "lon": 60.775556
  },
  {
    "id": "163",
    "name": "قوچان",
    "province": "خراسان رضوی",
    "province_id": "11",
    "lat": 37.106111,
    "lon": 58.509444
  },
  {
    "id": "164",
    "name": "سرخس",
    "province": "خراسان رضوی",
    "province_id": "11",
    "lat": 36.545,
    "lon": 61.157778
  },
  {
    "id": "165",
    "name": "بردسکن",
    "province": "خراسان رضوی",
    "province_id": "11",
    "lat": 35.260833,
    "lon": 57.969722
  },
  {
    "id": "166",
    "name": "فریمان",
    "province": "خراسان رضوی",
    "province_id": "11",
    "lat": 35.706944,
    "lon": 59.85
  },
  {
    "id": "167",
    "name": "چناران",
    "province": "خراسان رضوی",
    "province_id": "11",
    "lat": 36.645556,
    "lon": 59.121111
  },
  {
    "id": "168",
    "name": "درگز",
    "province": "خراسان رضوی",
    "province_id": "11",
    "lat": 37.444444,
    "lon": 59.108056
  },
  {
    "id": "169",
    "name": "کلات",
    "province": "خراسان رضوی",
    "province_id": "11",
    "lat": 34.198333,
    "lon": 58.544444
  },
  {
    "id": "170",
    "name": "طرقبه",
    "province": "خراسان رضوی",
    "province_id": "11",
    "lat": null,
    "lon": null
  },
  {
    "id": "171",
    "name": "سر ولایت",
    "province": "خراسان رضوی",
    "province_id": "11",
    "lat": null,
    "lon": null
  },
  {
    "id": "441",
    "name": "بجستان",
    "province": "خراسان رضوی",
    "province_id": "11",
    "lat": 34.516389,
    "lon": 58.184444
  },
  {
    "id": "172",
    "name": "بجنورد",
    "province": "خراسان شمالی",
    "province_id": "12",
    "lat": 37.475,
    "lon": 57.333333
  },
  {
    "id": "173",
    "name": "اسفراین",
    "province": "خراسان شمالی",
    "province_id": "12",
    "lat": 37.076389,
    "lon": 57.51
  },
  {
    "id": "174",
    "name": "جاجرم",
    "province": "خراسان شمالی",
    "province_id": "12",
    "lat": 36.95,
    "lon": 56.38
  },
  {
    "id": "175",
    "name": "شیروان",
    "province": "خراسان شمالی",
    "province_id": "12",
    "lat": 37.4092357,
    "lon": 57.9276184
  },
  {
    "id": "176",
    "name": "آشخانه",
    "province": "خراسان شمالی",
    "province_id": "12",
    "lat": null,
    "lon": null
  },
  {
    "id": "177",
    "name": "گرمه",
    "province": "خراسان شمالی",
    "province_id": "12",
    "lat": null,
    "lon": null
  },
  {
    "id": "178",
    "name": "ساروج",
    "province": "خراسان شمالی",
    "province_id": "12",
    "lat": null,
    "lon": null
  },
  {
    "id": "179",
    "name": "اهواز",
    "province": "خوزستان",
    "province_id": "13",
    "lat": 31.3183272,
    "lon": 48.6706187
  },
  {
    "id": "180",
    "name": "ایرانشهر",
    "province": "خوزستان",
    "province_id": "13",
    "lat": 27.2025,
    "lon": 60.684722
  },
  {
    "id": "181",
    "name": "شوش",
    "province": "خوزستان",
    "province_id": "13",
    "lat": 32.194167,
    "lon": 48.243611
  },
  {
    "id": "182",
    "name": "آبادان",
    "province": "خوزستان",
    "province_id": "13",
    "lat": 30.347296,
    "lon": 48.2934004
  },
  {
    "id": "183",
    "name": "خرمشهر",
    "province": "خوزستان",
    "province_id": "13",
    "lat": 30.4256219,
    "lon": 48.1891185
  },
  {
    "id": "184",
    "name": "مسجد سلیمان",
    "province": "خوزستان",
    "province_id": "13",
    "lat": 31.936389,
    "lon": 49.303889
  },
  {
    "id": "185",
    "name": "ایذه",
    "province": "خوزستان",
    "province_id": "13",
    "lat": 31.834167,
    "lon": 49.867222
  },
  {
    "id": "186",
    "name": "شوشتر",
    "province": "خوزستان",
    "province_id": "13",
    "lat": 32.045556,
    "lon": 48.856667
  },
  {
    "id": "187",
    "name": "اندیمشک",
    "province": "خوزستان",
    "province_id": "13",
    "lat": 32.46,
    "lon": 48.359167
  },
  {
    "id": "188",
    "name": "سوسنگرد",
    "province": "خوزستان",
    "province_id": "13",
    "lat": null,
    "lon": null
  },
  {
    "id": "189",
    "name": "هویزه",
    "province": "خوزستان",
    "province_id": "13",
    "lat": null,
    "lon": null
  },
  {
    "id": "190",
    "name": "دزفول",
    "province": "خوزستان",
    "province_id": "13",
    "lat": 32.3830777,
    "lon": 48.4235841
  },
  {
    "id": "191",
    "name": "شادگان",
    "province": "خوزستان",
    "province_id": "13",
    "lat": 30.649722,
    "lon": 48.664722
  },
  {
    "id": "192",
    "name": "بندر ماهشهر",
    "province": "خوزستان",
    "province_id": "13",
    "lat": 30.558889,
    "lon": 49.198056
  },
  {
    "id": "193",
    "name": "بندر امام خمینی",
    "province": "خوزستان",
    "province_id": "13",
    "lat": null,
    "lon": null
  },
  {
    "id": "194",
    "name": "امیدیه",
    "province": "خوزستان",
    "province_id": "13",
    "lat": 30.745833,
    "lon": 49.708611
  },
  {
    "id": "195",
    "name": "بهبهان",
    "province": "خوزستان",
    "province_id": "13",
    "lat": 30.595833,
    "lon": 50.241667
  },
  {
    "id": "196",
    "name": "رامهرمز",
    "province": "خوزستان",
    "province_id": "13",
    "lat": 31.28,
    "lon": 49.603611
  },
  {
    "id": "197",
    "name": "باغ ملک",
    "province": "خوزستان",
    "province_id": "13",
    "lat": 32.3947206,
    "lon": 51.5965328
  },
  {
    "id": "198",
    "name": "هندیجان",
    "province": "خوزستان",
    "province_id": "13",
    "lat": 30.236389,
    "lon": 49.711944
  },
  {
    "id": "199",
    "name": "لالی",
    "province": "خوزستان",
    "province_id": "13",
    "lat": 32.328889,
    "lon": 49.093611
  },
  {
    "id": "200",
    "name": "رامشیر",
    "province": "خوزستان",
    "province_id": "13",
    "lat": 30.8956521,
    "lon": 49.4094701
  },
  {
    "id": "201",
    "name": "حمیدیه",
    "province": "خوزستان",
    "province_id": "13",
    "lat": null,
    "lon": null
  },
  {
    "id": "202",
    "name": "دغاغله",
    "province": "خوزستان",
    "province_id": "13",
    "lat": null,
    "lon": null
  },
  {
    "id": "203",
    "name": "ملاثانی",
    "province": "خوزستان",
    "province_id": "13",
    "lat": null,
    "lon": null
  },
  {
    "id": "205",
    "name": "ویسی",
    "province": "خوزستان",
    "province_id": "13",
    "lat": null,
    "lon": null
  },
  {
    "id": "445",
    "name": "آغاجاری",
    "province": "خوزستان",
    "province_id": "13",
    "lat": null,
    "lon": null
  },
  {
    "id": "206",
    "name": "زنجان",
    "province": "زنجان",
    "province_id": "14",
    "lat": 36.5018185,
    "lon": 48.3988186
  },
  {
    "id": "207",
    "name": "ابهر",
    "province": "زنجان",
    "province_id": "14",
    "lat": 36.146667,
    "lon": 49.218056
  },
  {
    "id": "208",
    "name": "خدابنده",
    "province": "زنجان",
    "province_id": "14",
    "lat": 36.114722,
    "lon": 48.591111
  },
  {
    "id": "209",
    "name": "طارم",
    "province": "زنجان",
    "province_id": "14",
    "lat": 28.1804287,
    "lon": 55.7453367
  },
  {
    "id": "210",
    "name": "ماهنشان",
    "province": "زنجان",
    "province_id": "14",
    "lat": 36.744444,
    "lon": 47.6725
  },
  {
    "id": "211",
    "name": "خرمدره",
    "province": "زنجان",
    "province_id": "14",
    "lat": 36.203056,
    "lon": 49.186944
  },
  {
    "id": "212",
    "name": "ایجرود",
    "province": "زنجان",
    "province_id": "14",
    "lat": 36.4160928,
    "lon": 48.2469249
  },
  {
    "id": "213",
    "name": "زرین آباد",
    "province": "زنجان",
    "province_id": "14",
    "lat": null,
    "lon": null
  },
  {
    "id": "214",
    "name": "آب بر",
    "province": "زنجان",
    "province_id": "14",
    "lat": null,
    "lon": null
  },
  {
    "id": "215",
    "name": "قیدار",
    "province": "زنجان",
    "province_id": "14",
    "lat": null,
    "lon": null
  },
  {
    "id": "216",
    "name": "سمنان",
    "province": "سمنان",
    "province_id": "15",
    "lat": 35.2255585,
    "lon": 54.4342138
  },
  {
    "id": "217",
    "name": "شاهرود",
    "province": "سمنان",
    "province_id": "15",
    "lat": 36.418056,
    "lon": 54.976389
  },
  {
    "id": "218",
    "name": "گرمسار",
    "province": "سمنان",
    "province_id": "15",
    "lat": 35.218333,
    "lon": 52.340833
  },
  {
    "id": "219",
    "name": "ایوانکی",
    "province": "سمنان",
    "province_id": "15",
    "lat": null,
    "lon": null
  },
  {
    "id": "220",
    "name": "دامغان",
    "province": "سمنان",
    "province_id": "15",
    "lat": 36.168333,
    "lon": 54.348056
  },
  {
    "id": "221",
    "name": "بسطام",
    "province": "سمنان",
    "province_id": "15",
    "lat": null,
    "lon": null
  },
  {
    "id": "222",
    "name": "زاهدان",
    "province": "سیستان و بلوچستان",
    "province_id": "16",
    "lat": 29.496389,
    "lon": 60.862778
  },
  {
    "id": "223",
    "name": "چابهار",
    "province": "سیستان و بلوچستان",
    "province_id": "16",
    "lat": 25.291944,
    "lon": 60.643056
  },
  {
    "id": "224",
    "name": "خاش",
    "province": "سیستان و بلوچستان",
    "province_id": "16",
    "lat": 28.216667,
    "lon": 61.2
  },
  {
    "id": "225",
    "name": "سراوان",
    "province": "سیستان و بلوچستان",
    "province_id": "16",
    "lat": 27.370833,
    "lon": 62.334167
  },
  {
    "id": "226",
    "name": "زابل",
    "province": "سیستان و بلوچستان",
    "province_id": "16",
    "lat": 31.028611,
    "lon": 61.501111
  },
  {
    "id": "227",
    "name": "سرباز",
    "province": "سیستان و بلوچستان",
    "province_id": "16",
    "lat": 26.630833,
    "lon": 61.256389
  },
  {
    "id": "228",
    "name": "نیکشهر",
    "province": "سیستان و بلوچستان",
    "province_id": "16",
    "lat": 26.4184719,
    "lon": 60.2110752
  },
  {
    "id": "229",
    "name": "ایرانشهر",
    "province": "سیستان و بلوچستان",
    "province_id": "16",
    "lat": 27.2025,
    "lon": 60.684722
  },
  {
    "id": "230",
    "name": "راسک",
    "province": "سیستان و بلوچستان",
    "province_id": "16",
    "lat": null,
    "lon": null
  },
  {
    "id": "231",
    "name": "میرجاوه",
    "province": "سیستان و بلوچستان",
    "province_id": "16",
    "lat": null,
    "lon": null
  },
  {
    "id": "232",
    "name": "شیراز",
    "province": "فارس",
    "province_id": "17",
    "lat": 29.5917677,
    "lon": 52.5836982
  },
  {
    "id": "233",
    "name": "اقلید",
    "province": "فارس",
    "province_id": "17",
    "lat": 30.898889,
    "lon": 52.686667
  },
  {
    "id": "234",
    "name": "داراب",
    "province": "فارس",
    "province_id": "17",
    "lat": 28.751944,
    "lon": 54.544444
  },
  {
    "id": "235",
    "name": "فسا",
    "province": "فارس",
    "province_id": "17",
    "lat": 28.938333,
    "lon": 53.648333
  },
  {
    "id": "236",
    "name": "مرودشت",
    "province": "فارس",
    "province_id": "17",
    "lat": 29.874167,
    "lon": 52.8025
  },
  {
    "id": "237",
    "name": "خرم بید",
    "province": "فارس",
    "province_id": "17",
    "lat": 32.6708345,
    "lon": 51.6470279
  },
  {
    "id": "238",
    "name": "آباده",
    "province": "فارس",
    "province_id": "17",
    "lat": 31.160833,
    "lon": 52.650556
  },
  {
    "id": "239",
    "name": "کازرون",
    "province": "فارس",
    "province_id": "17",
    "lat": 29.619444,
    "lon": 51.654167
  },
  {
    "id": "240",
    "name": "ممسنی",
    "province": "فارس",
    "province_id": "17",
    "lat": 31.9600345,
    "lon": 50.5122652
  },
  {
    "id": "241",
    "name": "سپیدان",
    "province": "فارس",
    "province_id": "17",
    "lat": 30.2425282,
    "lon": 51.9924185
  },
  {
    "id": "242",
    "name": "لار",
    "province": "فارس",
    "province_id": "17",
    "lat": null,
    "lon": null
  },
  {
    "id": "243",
    "name": "فیروز آباد",
    "province": "فارس",
    "province_id": "17",
    "lat": 28.843889,
    "lon": 52.570833
  },
  {
    "id": "244",
    "name": "جهرم",
    "province": "فارس",
    "province_id": "17",
    "lat": 28.5,
    "lon": 53.560556
  },
  {
    "id": "245",
    "name": "نی ریز",
    "province": "فارس",
    "province_id": "17",
    "lat": 29.198889,
    "lon": 54.327778
  },
  {
    "id": "246",
    "name": "استهبان",
    "province": "فارس",
    "province_id": "17",
    "lat": 29.126667,
    "lon": 54.042222
  },
  {
    "id": "247",
    "name": "لامرد",
    "province": "فارس",
    "province_id": "17",
    "lat": 27.3423771,
    "lon": 53.1803558
  },
  {
    "id": "248",
    "name": "مهر",
    "province": "فارس",
    "province_id": "17",
    "lat": 27.5559931,
    "lon": 52.8847205
  },
  {
    "id": "249",
    "name": "حاجی آباد",
    "province": "فارس",
    "province_id": "17",
    "lat": 28.309167,
    "lon": 55.901667
  },
  {
    "id": "250",
    "name": "نورآباد",
    "province": "فارس",
    "province_id": "17",
    "lat": 30.114167,
    "lon": 51.521667
  },
  {
    "id": "251",
    "name": "اردکان",
    "province": "فارس",
    "province_id": "17",
    "lat": 32.31,
    "lon": 54.0175
  },
  {
    "id": "252",
    "name": "صفاشهر",
    "province": "فارس",
    "province_id": "17",
    "lat": null,
    "lon": null
  },
  {
    "id": "253",
    "name": "ارسنجان",
    "province": "فارس",
    "province_id": "17",
    "lat": 29.9125,
    "lon": 53.308611
  },
  {
    "id": "254",
    "name": "قیروکارزین",
    "province": "فارس",
    "province_id": "17",
    "lat": 28.42998,
    "lon": 53.09516
  },
  {
    "id": "255",
    "name": "سوریان",
    "province": "فارس",
    "province_id": "17",
    "lat": null,
    "lon": null
  },
  {
    "id": "256",
    "name": "فراشبند",
    "province": "فارس",
    "province_id": "17",
    "lat": 28.871389,
    "lon": 52.091667
  },
  {
    "id": "257",
    "name": "سروستان",
    "province": "فارس",
    "province_id": "17",
    "lat": null,
    "lon": null
  },
  {
    "id": "258",
    "name": "ارژن",
    "province": "فارس",
    "province_id": "17",
    "lat": null,
    "lon": null
  },
  {
    "id": "259",
    "name": "گویم",
    "province": "فارس",
    "province_id": "17",
    "lat": null,
    "lon": null
  },
  {
    "id": "260",
    "name": "داریون",
    "province": "فارس",
    "province_id": "17",
    "lat": null,
    "lon": null
  },
  {
    "id": "261",
    "name": "زرقان",
    "province": "فارس",
    "province_id": "17",
    "lat": null,
    "lon": null
  },
  {
    "id": "262",
    "name": "خان زنیان",
    "province": "فارس",
    "province_id": "17",
    "lat": null,
    "lon": null
  },
  {
    "id": "263",
    "name": "کوار",
    "province": "فارس",
    "province_id": "17",
    "lat": null,
    "lon": null
  },
  {
    "id": "264",
    "name": "ده بید",
    "province": "فارس",
    "province_id": "17",
    "lat": null,
    "lon": null
  },
  {
    "id": "265",
    "name": "باب انار/خفر",
    "province": "فارس",
    "province_id": "17",
    "lat": null,
    "lon": null
  },
  {
    "id": "266",
    "name": "بوانات",
    "province": "فارس",
    "province_id": "17",
    "lat": 30.4855907,
    "lon": 53.5933304
  },
  {
    "id": "267",
    "name": "خرامه",
    "province": "فارس",
    "province_id": "17",
    "lat": null,
    "lon": null
  },
  {
    "id": "268",
    "name": "خنج",
    "province": "فارس",
    "province_id": "17",
    "lat": 27.891389,
    "lon": 53.434444
  },
  {
    "id": "269",
    "name": "سیاخ دارنگون",
    "province": "فارس",
    "province_id": "17",
    "lat": null,
    "lon": null
  },
  {
    "id": "442",
    "name": "گراش",
    "province": "فارس",
    "province_id": "17",
    "lat": null,
    "lon": null
  },
  {
    "id": "447",
    "name": "پاسارگاد",
    "province": "فارس",
    "province_id": "17",
    "lat": 30.2033075,
    "lon": 53.17901
  },
  {
    "id": "448",
    "name": "بیضا",
    "province": "فارس",
    "province_id": "17",
    "lat": null,
    "lon": null
  },
  {
    "id": "270",
    "name": "قزوین",
    "province": "قزوین",
    "province_id": "18",
    "lat": 36.0881317,
    "lon": 49.8547266
  },
  {
    "id": "271",
    "name": "تاکستان",
    "province": "قزوین",
    "province_id": "18",
    "lat": 36.069722,
    "lon": 49.695833
  },
  {
    "id": "272",
    "name": "آبیک",
    "province": "قزوین",
    "province_id": "18",
    "lat": 36.04,
    "lon": 50.531111
  },
  {
    "id": "273",
    "name": "بوئین زهرا",
    "province": "قزوین",
    "province_id": "18",
    "lat": 35.766944,
    "lon": 50.057778
  },
  {
    "id": "274",
    "name": "قم",
    "province": "قم",
    "province_id": "19",
    "lat": 34.6399443,
    "lon": 50.8759419
  },
  {
    "id": "288",
    "name": "سنندج",
    "province": "کردستان",
    "province_id": "20",
    "lat": 35.3218748,
    "lon": 46.9861647
  },
  {
    "id": "289",
    "name": "دیواندره",
    "province": "کردستان",
    "province_id": "20",
    "lat": 35.913889,
    "lon": 47.023889
  },
  {
    "id": "290",
    "name": "بانه",
    "province": "کردستان",
    "province_id": "20",
    "lat": 35.9985999,
    "lon": 45.8823428
  },
  {
    "id": "291",
    "name": "بیجار",
    "province": "کردستان",
    "province_id": "20",
    "lat": 32.735278,
    "lon": 59.466667
  },
  {
    "id": "292",
    "name": "سقز",
    "province": "کردستان",
    "province_id": "20",
    "lat": 36.246389,
    "lon": 46.266389
  },
  {
    "id": "293",
    "name": "کامیاران",
    "province": "کردستان",
    "province_id": "20",
    "lat": 34.795556,
    "lon": 46.935556
  },
  {
    "id": "294",
    "name": "قروه",
    "province": "کردستان",
    "province_id": "20",
    "lat": 35.1678934,
    "lon": 47.8038272
  },
  {
    "id": "295",
    "name": "مریوان",
    "province": "کردستان",
    "province_id": "20",
    "lat": 35.526944,
    "lon": 46.176389
  },
  {
    "id": "296",
    "name": "صلوات آباد",
    "province": "کردستان",
    "province_id": "20",
    "lat": null,
    "lon": null
  },
  {
    "id": "297",
    "name": "حسن آباد",
    "province": "کردستان",
    "province_id": "20",
    "lat": null,
    "lon": null
  },
  {
    "id": "298",
    "name": "کرمان",
    "province": "کرمان",
    "province_id": "21",
    "lat": 29.4850089,
    "lon": 57.6439048
  },
  {
    "id": "299",
    "name": "راور",
    "province": "کرمان",
    "province_id": "21",
    "lat": 31.265556,
    "lon": 56.805556
  },
  {
    "id": "300",
    "name": "بابک",
    "province": "کرمان",
    "province_id": "21",
    "lat": null,
    "lon": null
  },
  {
    "id": "301",
    "name": "انار",
    "province": "کرمان",
    "province_id": "21",
    "lat": null,
    "lon": null
  },
  {
    "id": "302",
    "name": "کوهبنان",
    "province": "کرمان",
    "province_id": "21",
    "lat": 31.410278,
    "lon": 56.2825
  },
  {
    "id": "303",
    "name": "رفسنجان",
    "province": "کرمان",
    "province_id": "21",
    "lat": 30.406667,
    "lon": 55.993889
  },
  {
    "id": "304",
    "name": "بافت",
    "province": "کرمان",
    "province_id": "21",
    "lat": 29.233056,
    "lon": 56.602222
  },
  {
    "id": "305",
    "name": "سیرجان",
    "province": "کرمان",
    "province_id": "21",
    "lat": 29.4586676,
    "lon": 55.6714051
  },
  {
    "id": "306",
    "name": "کهنوج",
    "province": "کرمان",
    "province_id": "21",
    "lat": 27.9467603,
    "lon": 57.7062572
  },
  {
    "id": "307",
    "name": "زرند",
    "province": "کرمان",
    "province_id": "21",
    "lat": 30.812778,
    "lon": 56.563889
  },
  {
    "id": "308",
    "name": "بم",
    "province": "کرمان",
    "province_id": "21",
    "lat": 29.106111,
    "lon": 58.356944
  },
  {
    "id": "309",
    "name": "جیرفت",
    "province": "کرمان",
    "province_id": "21",
    "lat": 28.6751124,
    "lon": 57.7371569
  },
  {
    "id": "310",
    "name": "بردسیر",
    "province": "کرمان",
    "province_id": "21",
    "lat": 29.9275,
    "lon": 56.572222
  },
  {
    "id": "311",
    "name": "کرمانشاه",
    "province": "کرمانشاه",
    "province_id": "22",
    "lat": 34.4576233,
    "lon": 46.670534
  },
  {
    "id": "312",
    "name": "اسلام آباد غرب",
    "province": "کرمانشاه",
    "province_id": "22",
    "lat": 33.7293882,
    "lon": 73.0931461
  },
  {
    "id": "313",
    "name": "سر پل ذهاب",
    "province": "کرمانشاه",
    "province_id": "22",
    "lat": 34.461111,
    "lon": 45.862778
  },
  {
    "id": "314",
    "name": "کنگاور",
    "province": "کرمانشاه",
    "province_id": "22",
    "lat": 34.504167,
    "lon": 47.965278
  },
  {
    "id": "315",
    "name": "سنقر",
    "province": "کرمانشاه",
    "province_id": "22",
    "lat": 34.783611,
    "lon": 47.600278
  },
  {
    "id": "316",
    "name": "قصر شیرین",
    "province": "کرمانشاه",
    "province_id": "22",
    "lat": 34.5159031,
    "lon": 45.5776859
  },
  {
    "id": "317",
    "name": "گیلان غرب",
    "province": "کرمانشاه",
    "province_id": "22",
    "lat": 34.142222,
    "lon": 45.920278
  },
  {
    "id": "318",
    "name": "هرسین",
    "province": "کرمانشاه",
    "province_id": "22",
    "lat": 34.2719149,
    "lon": 47.6046183
  },
  {
    "id": "319",
    "name": "صحنه",
    "province": "کرمانشاه",
    "province_id": "22",
    "lat": 34.481389,
    "lon": 47.690833
  },
  {
    "id": "320",
    "name": "پاوه",
    "province": "کرمانشاه",
    "province_id": "22",
    "lat": 35.043333,
    "lon": 46.356389
  },
  {
    "id": "321",
    "name": "جوانرود",
    "province": "کرمانشاه",
    "province_id": "22",
    "lat": 34.806667,
    "lon": 46.488611
  },
  {
    "id": "322",
    "name": "شاهو",
    "province": "کرمانشاه",
    "province_id": "22",
    "lat": null,
    "lon": null
  },
  {
    "id": "323",
    "name": "یاسوج",
    "province": "کهکیلویه و بویراحمد",
    "province_id": "23",
    "lat": null,
    "lon": null
  },
  {
    "id": "324",
    "name": "گچساران",
    "province": "کهکیلویه و بویراحمد",
    "province_id": "23",
    "lat": 30.35,
    "lon": 50.8
  },
  {
    "id": "325",
    "name": "دنا",
    "province": "کهکیلویه و بویراحمد",
    "province_id": "23",
    "lat": 30.9516666,
    "lon": 51.4375
  },
  {
    "id": "326",
    "name": "دوگنبدان",
    "province": "کهکیلویه و بویراحمد",
    "province_id": "23",
    "lat": null,
    "lon": null
  },
  {
    "id": "327",
    "name": "سی سخت",
    "province": "کهکیلویه و بویراحمد",
    "province_id": "23",
    "lat": null,
    "lon": null
  },
  {
    "id": "328",
    "name": "دهدشت",
    "province": "کهکیلویه و بویراحمد",
    "province_id": "23",
    "lat": null,
    "lon": null
  },
  {
    "id": "329",
    "name": "لیکک",
    "province": "کهکیلویه و بویراحمد",
    "province_id": "23",
    "lat": null,
    "lon": null
  },
  {
    "id": "330",
    "name": "گرگان",
    "province": "گلستان",
    "province_id": "24",
    "lat": 36.8456427,
    "lon": 54.4393363
  },
  {
    "id": "331",
    "name": "آق قلا",
    "province": "گلستان",
    "province_id": "24",
    "lat": 37.013889,
    "lon": 54.455
  },
  {
    "id": "332",
    "name": "گنبد کاووس",
    "province": "گلستان",
    "province_id": "24",
    "lat": 37.25,
    "lon": 55.167222
  },
  {
    "id": "333",
    "name": "علی آباد کتول",
    "province": "گلستان",
    "province_id": "24",
    "lat": null,
    "lon": null
  },
  {
    "id": "334",
    "name": "مینو دشت",
    "province": "گلستان",
    "province_id": "24",
    "lat": 37.228889,
    "lon": 55.374722
  },
  {
    "id": "335",
    "name": "ترکمن",
    "province": "گلستان",
    "province_id": "24",
    "lat": null,
    "lon": null
  },
  {
    "id": "336",
    "name": "کردکوی",
    "province": "گلستان",
    "province_id": "24",
    "lat": 36.7941426,
    "lon": 54.110274
  },
  {
    "id": "337",
    "name": "بندر گز",
    "province": "گلستان",
    "province_id": "24",
    "lat": 36.774965,
    "lon": 53.9461749
  },
  {
    "id": "338",
    "name": "کلاله",
    "province": "گلستان",
    "province_id": "24",
    "lat": 37.380833,
    "lon": 55.491667
  },
  {
    "id": "339",
    "name": "آزاد شهر",
    "province": "گلستان",
    "province_id": "24",
    "lat": 37.086944,
    "lon": 55.173889
  },
  {
    "id": "340",
    "name": "رامیان",
    "province": "گلستان",
    "province_id": "24",
    "lat": 37.016111,
    "lon": 55.141111
  },
  {
    "id": "341",
    "name": "رشت",
    "province": "گیلان",
    "province_id": "25",
    "lat": 37.280833,
    "lon": 49.583056
  },
  {
    "id": "342",
    "name": "منجیل",
    "province": "گیلان",
    "province_id": "25",
    "lat": null,
    "lon": null
  },
  {
    "id": "343",
    "name": "لنگرود",
    "province": "گیلان",
    "province_id": "25",
    "lat": 37.196944,
    "lon": 50.153611
  },
  {
    "id": "344",
    "name": "رود سر",
    "province": "گیلان",
    "province_id": "25",
    "lat": 37.1378415,
    "lon": 50.2836199
  },
  {
    "id": "345",
    "name": "تالش",
    "province": "گیلان",
    "province_id": "25",
    "lat": null,
    "lon": null
  },
  {
    "id": "346",
    "name": "آستارا",
    "province": "گیلان",
    "province_id": "25",
    "lat": 38.429167,
    "lon": 48.871944
  },
  {
    "id": "347",
    "name": "ماسوله",
    "province": "گیلان",
    "province_id": "25",
    "lat": null,
    "lon": null
  },
  {
    "id": "348",
    "name": "آستانه اشرفیه",
    "province": "گیلان",
    "province_id": "25",
    "lat": 37.2598022,
    "lon": 49.9436621
  },
  {
    "id": "349",
    "name": "رودبار",
    "province": "گیلان",
    "province_id": "25",
    "lat": 36.8241289,
    "lon": 49.4237274
  },
  {
    "id": "350",
    "name": "فومن",
    "province": "گیلان",
    "province_id": "25",
    "lat": 37.223889,
    "lon": 49.3125
  },
  {
    "id": "351",
    "name": "صومعه سرا",
    "province": "گیلان",
    "province_id": "25",
    "lat": 37.311667,
    "lon": 49.321944
  },
  {
    "id": "352",
    "name": "بندرانزلی",
    "province": "گیلان",
    "province_id": "25",
    "lat": 37.4724467,
    "lon": 49.4587312
  },
  {
    "id": "353",
    "name": "کلاچای",
    "province": "گیلان",
    "province_id": "25",
    "lat": null,
    "lon": null
  },
  {
    "id": "354",
    "name": "هشتپر",
    "province": "گیلان",
    "province_id": "25",
    "lat": null,
    "lon": null
  },
  {
    "id": "355",
    "name": "رضوان شهر",
    "province": "گیلان",
    "province_id": "25",
    "lat": 37.550675,
    "lon": 49.1409801
  },
  {
    "id": "356",
    "name": "ماسال",
    "province": "گیلان",
    "province_id": "25",
    "lat": 37.3621185,
    "lon": 49.1314769
  },
  {
    "id": "357",
    "name": "شفت",
    "province": "گیلان",
    "province_id": "25",
    "lat": 39.630631,
    "lon": -78.929542
  },
  {
    "id": "358",
    "name": "سیاهکل",
    "province": "گیلان",
    "province_id": "25",
    "lat": 37.152778,
    "lon": 49.870833
  },
  {
    "id": "359",
    "name": "املش",
    "province": "گیلان",
    "province_id": "25",
    "lat": 37.0916334,
    "lon": 50.1869377
  },
  {
    "id": "360",
    "name": "لاهیجان",
    "province": "گیلان",
    "province_id": "25",
    "lat": 37.207222,
    "lon": 50.003889
  },
  {
    "id": "361",
    "name": "خشک بیجار",
    "province": "گیلان",
    "province_id": "25",
    "lat": null,
    "lon": null
  },
  {
    "id": "362",
    "name": "خمام",
    "province": "گیلان",
    "province_id": "25",
    "lat": null,
    "lon": null
  },
  {
    "id": "363",
    "name": "لشت نشا",
    "province": "گیلان",
    "province_id": "25",
    "lat": null,
    "lon": null
  },
  {
    "id": "364",
    "name": "بندر کیاشهر",
    "province": "گیلان",
    "province_id": "25",
    "lat": null,
    "lon": null
  },
  {
    "id": "365",
    "name": "خرم آباد",
    "province": "لرستان",
    "province_id": "26",
    "lat": 33.487778,
    "lon": 48.355833
  },
  {
    "id": "366",
    "name": "ماهشهر",
    "province": "لرستان",
    "province_id": "26",
    "lat": null,
    "lon": null
  },
  {
    "id": "367",
    "name": "دزفول",
    "province": "لرستان",
    "province_id": "26",
    "lat": 32.3830777,
    "lon": 48.4235841
  },
  {
    "id": "368",
    "name": "بروجرد",
    "province": "لرستان",
    "province_id": "26",
    "lat": 33.8941993,
    "lon": 48.767033
  },
  {
    "id": "369",
    "name": "دورود",
    "province": "لرستان",
    "province_id": "26",
    "lat": 33.4955028,
    "lon": 49.0631743
  },
  {
    "id": "370",
    "name": "الیگودرز",
    "province": "لرستان",
    "province_id": "26",
    "lat": 33.400556,
    "lon": 49.695
  },
  {
    "id": "371",
    "name": "ازنا",
    "province": "لرستان",
    "province_id": "26",
    "lat": 33.455833,
    "lon": 49.455556
  },
  {
    "id": "372",
    "name": "نور آباد",
    "province": "لرستان",
    "province_id": "26",
    "lat": 30.114167,
    "lon": 51.521667
  },
  {
    "id": "373",
    "name": "کوهدشت",
    "province": "لرستان",
    "province_id": "26",
    "lat": 33.535,
    "lon": 47.606111
  },
  {
    "id": "374",
    "name": "الشتر",
    "province": "لرستان",
    "province_id": "26",
    "lat": 33.8639888,
    "lon": 48.2642387
  },
  {
    "id": "375",
    "name": "پلدختر",
    "province": "لرستان",
    "province_id": "26",
    "lat": 33.153611,
    "lon": 47.713611
  },
  {
    "id": "376",
    "name": "ساری",
    "province": "مازندران",
    "province_id": "27",
    "lat": 36.563333,
    "lon": 53.06
  },
  {
    "id": "377",
    "name": "آمل",
    "province": "مازندران",
    "province_id": "27",
    "lat": 36.469722,
    "lon": 52.350833
  },
  {
    "id": "378",
    "name": "بابل",
    "province": "مازندران",
    "province_id": "27",
    "lat": 32.468191,
    "lon": 44.5501935
  },
  {
    "id": "379",
    "name": "بابلسر",
    "province": "مازندران",
    "province_id": "27",
    "lat": 36.7025,
    "lon": 52.6575
  },
  {
    "id": "380",
    "name": "بهشهر",
    "province": "مازندران",
    "province_id": "27",
    "lat": 36.692222,
    "lon": 53.5525
  },
  {
    "id": "381",
    "name": "تنکابن",
    "province": "مازندران",
    "province_id": "27",
    "lat": 36.816389,
    "lon": 50.873889
  },
  {
    "id": "382",
    "name": "جویبار",
    "province": "مازندران",
    "province_id": "27",
    "lat": 36.641111,
    "lon": 52.9125
  },
  {
    "id": "383",
    "name": "چالوس",
    "province": "مازندران",
    "province_id": "27",
    "lat": 36.6459174,
    "lon": 51.406979
  },
  {
    "id": "384",
    "name": "رامسر",
    "province": "مازندران",
    "province_id": "27",
    "lat": 36.903056,
    "lon": 50.658333
  },
  {
    "id": "385",
    "name": "سواد کوه",
    "province": "مازندران",
    "province_id": "27",
    "lat": 36.3040255,
    "lon": 52.8852403
  },
  {
    "id": "386",
    "name": "قائم شهر",
    "province": "مازندران",
    "province_id": "27",
    "lat": 36.463056,
    "lon": 52.86
  },
  {
    "id": "387",
    "name": "نکا",
    "province": "مازندران",
    "province_id": "27",
    "lat": 36.650833,
    "lon": 53.299167
  },
  {
    "id": "388",
    "name": "نور",
    "province": "مازندران",
    "province_id": "27",
    "lat": 50.3851246,
    "lon": 3.2642436
  },
  {
    "id": "389",
    "name": "بلده",
    "province": "مازندران",
    "province_id": "27",
    "lat": null,
    "lon": null
  },
  {
    "id": "390",
    "name": "نوشهر",
    "province": "مازندران",
    "province_id": "27",
    "lat": 36.648889,
    "lon": 51.496111
  },
  {
    "id": "391",
    "name": "پل سفید",
    "province": "مازندران",
    "province_id": "27",
    "lat": null,
    "lon": null
  },
  {
    "id": "392",
    "name": "محمود آباد",
    "province": "مازندران",
    "province_id": "27",
    "lat": 36.631944,
    "lon": 52.262778
  },
  {
    "id": "393",
    "name": "فریدون کنار",
    "province": "مازندران",
    "province_id": "27",
    "lat": 36.686389,
    "lon": 52.5225
  },
  {
    "id": "394",
    "name": "اراک",
    "province": "مرکزی",
    "province_id": "28",
    "lat": 34.091667,
    "lon": 49.689167
  },
  {
    "id": "395",
    "name": "آشتیان",
    "province": "مرکزی",
    "province_id": "28",
    "lat": 34.521944,
    "lon": 50.006111
  },
  {
    "id": "396",
    "name": "تفرش",
    "province": "مرکزی",
    "province_id": "28",
    "lat": 34.691944,
    "lon": 50.013056
  },
  {
    "id": "397",
    "name": "خمین",
    "province": "مرکزی",
    "province_id": "28",
    "lat": 33.6406148,
    "lon": 50.0771125
  },
  {
    "id": "398",
    "name": "دلیجان",
    "province": "مرکزی",
    "province_id": "28",
    "lat": 33.990556,
    "lon": 50.683889
  },
  {
    "id": "399",
    "name": "ساوه",
    "province": "مرکزی",
    "province_id": "28",
    "lat": 35.021389,
    "lon": 50.356667
  },
  {
    "id": "400",
    "name": "سربند",
    "province": "مرکزی",
    "province_id": "28",
    "lat": null,
    "lon": null
  },
  {
    "id": "401",
    "name": "محلات",
    "province": "مرکزی",
    "province_id": "28",
    "lat": 33.9085748,
    "lon": 50.4552616
  },
  {
    "id": "402",
    "name": "شازند",
    "province": "مرکزی",
    "province_id": "28",
    "lat": 33.9275,
    "lon": 49.411667
  },
  {
    "id": "403",
    "name": "بندرعباس",
    "province": "هرمزگان",
    "province_id": "29",
    "lat": 27.1832216,
    "lon": 56.2666455
  },
  {
    "id": "405",
    "name": "کیش",
    "province": "هرمزگان",
    "province_id": "29",
    "lat": null,
    "lon": null
  },
  {
    "id": "406",
    "name": "بندر لنگه",
    "province": "هرمزگان",
    "province_id": "29",
    "lat": 26.558056,
    "lon": 54.880556
  },
  {
    "id": "407",
    "name": "بستک",
    "province": "هرمزگان",
    "province_id": "29",
    "lat": 27.199167,
    "lon": 54.366667
  },
  {
    "id": "408",
    "name": "حاجی آباد",
    "province": "هرمزگان",
    "province_id": "29",
    "lat": 28.309167,
    "lon": 55.901667
  },
  {
    "id": "409",
    "name": "دهبارز",
    "province": "هرمزگان",
    "province_id": "29",
    "lat": null,
    "lon": null
  },
  {
    "id": "410",
    "name": "انگهران",
    "province": "هرمزگان",
    "province_id": "29",
    "lat": null,
    "lon": null
  },
  {
    "id": "411",
    "name": "میناب",
    "province": "هرمزگان",
    "province_id": "29",
    "lat": 27.146667,
    "lon": 57.08
  },
  {
    "id": "412",
    "name": "ابوموسی",
    "province": "هرمزگان",
    "province_id": "29",
    "lat": 25.8797106,
    "lon": 55.0328017
  },
  {
    "id": "413",
    "name": "بندر جاسک",
    "province": "هرمزگان",
    "province_id": "29",
    "lat": null,
    "lon": null
  },
  {
    "id": "414",
    "name": "تنب بزرگ",
    "province": "هرمزگان",
    "province_id": "29",
    "lat": null,
    "lon": null
  },
  {
    "id": "415",
    "name": "بندر خمیر",
    "province": "هرمزگان",
    "province_id": "29",
    "lat": null,
    "lon": null
  },
  {
    "id": "416",
    "name": "پارسیان",
    "province": "هرمزگان",
    "province_id": "29",
    "lat": null,
    "lon": null
  },
  {
    "id": "417",
    "name": "قشم",
    "province": "هرمزگان",
    "province_id": "29",
    "lat": 26.8118673,
    "lon": 55.8913207
  },
  {
    "id": "444",
    "name": "سیریک",
    "province": "هرمزگان",
    "province_id": "29",
    "lat": null,
    "lon": null
  },
  {
    "id": "418",
    "name": "همدان",
    "province": "همدان",
    "province_id": "30",
    "lat": 34.7607999,
    "lon": 48.3988186
  },
  {
    "id": "419",
    "name": "ملایر",
    "province": "همدان",
    "province_id": "30",
    "lat": 34.296944,
    "lon": 48.823611
  },
  {
    "id": "420",
    "name": "تویسرکان",
    "province": "همدان",
    "province_id": "30",
    "lat": 34.548056,
    "lon": 48.446944
  },
  {
    "id": "421",
    "name": "نهاوند",
    "province": "همدان",
    "province_id": "30",
    "lat": 34.188611,
    "lon": 48.376944
  },
  {
    "id": "422",
    "name": "کبودر اهنگ",
    "province": "همدان",
    "province_id": "30",
    "lat": null,
    "lon": null
  },
  {
    "id": "423",
    "name": "رزن",
    "province": "همدان",
    "province_id": "30",
    "lat": 35.386667,
    "lon": 49.033889
  },
  {
    "id": "424",
    "name": "اسدآباد",
    "province": "همدان",
    "province_id": "30",
    "lat": 34.7825,
    "lon": 48.118611
  },
  {
    "id": "425",
    "name": "بهار",
    "province": "همدان",
    "province_id": "30",
    "lat": 34.9083252,
    "lon": 48.4392729
  },
  {
    "id": "446",
    "name": "فامنین",
    "province": "همدان",
    "province_id": "30",
    "lat": null,
    "lon": null
  },
  {
    "id": "426",
    "name": "یزد",
    "province": "یزد",
    "province_id": "31",
    "lat": 32.1006387,
    "lon": 54.4342138
  },
  {
    "id": "427",
    "name": "تفت",
    "province": "یزد",
    "province_id": "31",
    "lat": "27.97890740",
    "lon": "-97.39860410"
  },
  {
    "id": "428",
    "name": "اردکان",
    "province": "یزد",
    "province_id": "31",
    "lat": 32.31,
    "lon": 54.0175
  },
  {
    "id": "429",
    "name": "ابرکوه",
    "province": "یزد",
    "province_id": "31",
    "lat": 31.1304036,
    "lon": 53.2503736
  },
  {
    "id": "430",
    "name": "میبد",
    "province": "یزد",
    "province_id": "31",
    "lat": 32.2487226,
    "lon": 54.0079341
  },
  {
    "id": "431",
    "name": "طبس",
    "province": "یزد",
    "province_id": "31",
    "lat": 33.595833,
    "lon": 56.924444
  },
  {
    "id": "432",
    "name": "بافق",
    "province": "یزد",
    "province_id": "31",
    "lat": 31.612778,
    "lon": 55.410556
  },
  {
    "id": "433",
    "name": "مهریز",
    "province": "یزد",
    "province_id": "31",
    "lat": 31.591667,
    "lon": 54.431667
  },
  {
    "id": "434",
    "name": "اشکذر",
    "province": "یزد",
    "province_id": "31",
    "lat": null,
    "lon": null
  },
  {
    "id": "435",
    "name": "هرات",
    "province": "یزد",
    "province_id": "31",
    "lat": null,
    "lon": null
  },
  {
    "id": "436",
    "name": "خضرآباد",
    "province": "یزد",
    "province_id": "31",
    "lat": null,
    "lon": null
  },
  {
    "id": "437",
    "name": "شاهدیه",
    "province": "یزد",
    "province_id": "31",
    "lat": null,
    "lon": null
  },
  {
    "id": "438",
    "name": "حمیدیه شهر",
    "province": "یزد",
    "province_id": "31",
    "lat": null,
    "lon": null
  },
  {
    "id": "439",
    "name": "سید میرزا",
    "province": "یزد",
    "province_id": "31",
    "lat": null,
    "lon": null
  },
  {
    "id": "440",
    "name": "زارچ",
    "province": "یزد",
    "province_id": "31",
    "lat": null,
    "lon": null
  }
]
